{"type":"FeatureCollection","features":[{"type":"Feature","id":1,"geometry":{"type":"Point","coordinates":[56.152300000261484,26.142100000952539]},"properties":{"OBJECTID":1,"NAME":"Bukha Hospital","WILLAYAT":"Bukha ","GOV":"Musandam Governorate","LATITUDE":26.142099999999999,"LONGITUDE":56.152299999999997}},{"type":"Feature","id":2,"geometry":{"type":"Point","coordinates":[57.510500000147417,22.407299998554489]},"properties":{"OBJECTID":2,"NAME":"Adam Hospital","WILLAYAT":"Adam","GOV":"Ad Dakhiliyah Governorate","LATITUDE":22.407299999999999,"LONGITUDE":57.5105}},{"type":"Feature","id":3,"geometry":{"type":"Point","coordinates":[57.77740000038628,22.929700000375068]},"properties":{"OBJECTID":3,"NAME":"Izki Hospital","WILLAYAT":"Izki ","GOV":"Ad Dakhiliyah Governorate","LATITUDE":22.9297,"LONGITUDE":57.7774}},{"type":"Feature","id":4,"geometry":{"type":"Point","coordinates":[55.80490000007056,24.252100000262086]},"properties":{"OBJECTID":4,"NAME":"Al Buraymi Hospital","WILLAYAT":"Al Buraimi","GOV":"Al Buraimi Governorate","LATITUDE":24.252099999999999,"LONGITUDE":55.804900000000004}},{"type":"Feature","id":5,"geometry":{"type":"Point","coordinates":[56.227399999595121,24.206199999958073]},"properties":{"OBJECTID":5,"NAME":"Wadi Al Jizzi Hospital","WILLAYAT":"Al Buraimi","GOV":"Al Buraimi Governorate","LATITUDE":24.206199999999999,"LONGITUDE":56.227400000000003}},{"type":"Feature","id":6,"geometry":{"type":"Point","coordinates":[57.303200000364875,22.965199998809208]},"properties":{"OBJECTID":6,"NAME":"Bahla Hospital","WILLAYAT":"Bahla","GOV":"Ad Dakhiliyah Governorate","LATITUDE":22.965199999999999,"LONGITUDE":57.303199999999997}},{"type":"Feature","id":7,"geometry":{"type":"Point","coordinates":[57.960599999816559,23.292699999912813]},"properties":{"OBJECTID":7,"NAME":"Samail Hospital","WILLAYAT":"Samail","GOV":"Ad Dakhiliyah Governorate","LATITUDE":23.2927,"LONGITUDE":57.960599999999999}},{"type":"Feature","id":8,"geometry":{"type":"Point","coordinates":[57.678999998785663,23.083200000387457]},"properties":{"OBJECTID":8,"NAME":"Al Jabal  Al  Akhdar Hospital","WILLAYAT":"Al Jabal Al Akhdar","GOV":"Ad Dakhiliyah Governorate","LATITUDE":23.083200000000001,"LONGITUDE":57.679000000000002}},{"type":"Feature","id":9,"geometry":{"type":"Point","coordinates":[57.521099998630064,22.855000000289998]},"properties":{"OBJECTID":9,"NAME":"Nizwa Hospital","WILLAYAT":"Nizwa","GOV":"Ad Dakhiliyah Governorate","LATITUDE":22.855,"LONGITUDE":57.521099999999997}},{"type":"Feature","id":10,"geometry":{"type":"Point","coordinates":[56.428299999956096,23.231199999932908]},"properties":{"OBJECTID":10,"NAME":"Ibri Hospital","WILLAYAT":"Ibri","GOV":"Ad Dhahirah Governorate","LATITUDE":23.231200000000001,"LONGITUDE":56.4283}},{"type":"Feature","id":11,"geometry":{"type":"Point","coordinates":[56.546400000319778,23.590100000267931]},"properties":{"OBJECTID":11,"NAME":"Yanqul Hospital","WILLAYAT":"Yanqul","GOV":"Ad Dhahirah Governorate","LATITUDE":23.5901,"LONGITUDE":56.546399999999998}},{"type":"Feature","id":12,"geometry":{"type":"Point","coordinates":[56.585600000223508,18.580199999880342]},"properties":{"OBJECTID":12,"NAME":"Al Jazer Hospital","WILLAYAT":"Al Jazer","GOV":"Al Wusta Governorate","LATITUDE":18.580200000000001,"LONGITUDE":56.585599999999999}},{"type":"Feature","id":13,"geometry":{"type":"Point","coordinates":[56.283900000336146,19.95960000021482]},"properties":{"OBJECTID":13,"NAME":"Hayma Hospital","WILLAYAT":"Haima","GOV":"Al Wusta Governorate","LATITUDE":19.959599999999998,"LONGITUDE":56.283900000000003}},{"type":"Feature","id":14,"geometry":{"type":"Point","coordinates":[57.631299998597953,19.629100000396857]},"properties":{"OBJECTID":14,"NAME":"Ad Duqm Hospital","WILLAYAT":"Duqm","GOV":"Al Wusta Governorate","LATITUDE":19.629100000000001,"LONGITUDE":57.631300000000003}},{"type":"Feature","id":15,"geometry":{"type":"Point","coordinates":[57.457400000487475,23.483999999099051]},"properties":{"OBJECTID":15,"NAME":"Ar Rustaq Hospital","WILLAYAT":"Rustaq","GOV":"Al Batinah South Governorate","LATITUDE":23.484000000000002,"LONGITUDE":57.4574}},{"type":"Feature","id":16,"geometry":{"type":"Point","coordinates":[57.229000000153171,23.587200000976619]},"properties":{"OBJECTID":16,"NAME":"Wadi Al Haymli Hospital","WILLAYAT":"Wadi Al Haymli","GOV":"Al Batinah South Governorate","LATITUDE":23.587199999999999,"LONGITUDE":57.228999999999999}},{"type":"Feature","id":17,"geometry":{"type":"Point","coordinates":[57.29409999987989,23.424100000043477]},"properties":{"OBJECTID":17,"NAME":"Wadi Bani Ghafir Hospital","WILLAYAT":"Khafdi","GOV":"Al Batinah South Governorate","LATITUDE":23.424099999999999,"LONGITUDE":57.2941}},{"type":"Feature","id":18,"geometry":{"type":"Point","coordinates":[57.55179999876507,23.22390000033765]},"properties":{"OBJECTID":18,"NAME":"Wadi Bani Kharus Hospital","WILLAYAT":"Al Awabi","GOV":"Al Batinah South Governorate","LATITUDE":23.2239,"LONGITUDE":57.5518}},{"type":"Feature","id":19,"geometry":{"type":"Point","coordinates":[57.752200000129378,23.191800000113222]},"properties":{"OBJECTID":19,"NAME":"Wadi Mistal Hospital","WILLAYAT":"Nakhal","GOV":"Ad Dhahirah Governorate","LATITUDE":23.191800000000001,"LONGITUDE":57.752200000000002}},{"type":"Feature","id":20,"geometry":{"type":"Point","coordinates":[59.25134999579052,22.12454167718413]},"properties":{"OBJECTID":20,"NAME":"Jaalan Bani Bu Hasan Hospital","WILLAYAT":"Jaalan Bani Bu Hassan","GOV":"Ash Sharqiyah South Governorate","LATITUDE":22.12454168,"LONGITUDE":59.251350000000002}},{"type":"Feature","id":21,"geometry":{"type":"Point","coordinates":[59.328200000451197,22.017200000753231]},"properties":{"OBJECTID":21,"NAME":"Jaalan Bani Bu Ali Hospital","WILLAYAT":"Jaalan Bani Bu Ali","GOV":"Ash Sharqiyah South Governorate","LATITUDE":22.017199999999999,"LONGITUDE":59.328200000000002}},{"type":"Feature","id":22,"geometry":{"type":"Point","coordinates":[59.4416000001901,22.510500001029389]},"properties":{"OBJECTID":22,"NAME":"Sur Hospital","WILLAYAT":"Sur","GOV":"Ash Sharqiyah South Governorate","LATITUDE":22.5105,"LONGITUDE":59.441600000000001}},{"type":"Feature","id":23,"geometry":{"type":"Point","coordinates":[58.848200000045644,20.588099998780422]},"properties":{"OBJECTID":23,"NAME":"Masirah Hospital","WILLAYAT":"Masirah Island","GOV":"Ash Sharqiyah South Governorate","LATITUDE":20.588100000000001,"LONGITUDE":58.848199999999999}},{"type":"Feature","id":24,"geometry":{"type":"Point","coordinates":[56.718399999859841,23.933700001279391]},"properties":{"OBJECTID":24,"NAME":"Wadi Al Sarmi Hospital","WILLAYAT":"Wadi Al Sarmi","GOV":"Al Batinah North Governorate","LATITUDE":23.933700000000002,"LONGITUDE":56.718400000000003}},{"type":"Feature","id":25,"geometry":{"type":"Point","coordinates":[56.921799999764509,23.685300000031624]},"properties":{"OBJECTID":25,"NAME":"Wadi Al Hawasnah Hospital","WILLAYAT":"Wadi Al Hawasnah ","GOV":"Al Batinah North Governorate","LATITUDE":23.685300000000002,"LONGITUDE":56.921799999999998}},{"type":"Feature","id":26,"geometry":{"type":"Point","coordinates":[56.678400000364555,24.326800000010596]},"properties":{"OBJECTID":26,"NAME":"Sohar Hospital","WILLAYAT":"Sohar","GOV":"Al Batinah North Governorate","LATITUDE":24.326799999999999,"LONGITUDE":56.678400000000003}},{"type":"Feature","id":27,"geometry":{"type":"Point","coordinates":[56.554099999567775,23.913899998696785]},"properties":{"OBJECTID":27,"NAME":"Wadi Hibi Hospital","WILLAYAT":"Sohar","GOV":"Al Batinah North Governorate","LATITUDE":23.913900000000002,"LONGITUDE":56.554099999999998}},{"type":"Feature","id":28,"geometry":{"type":"Point","coordinates":[56.872800000163743,24.139400000433248]},"properties":{"OBJECTID":28,"NAME":"Saham Hospital","WILLAYAT":"Saham ","GOV":"Al Batinah North Governorate","LATITUDE":24.139399999999998,"LONGITUDE":56.872799999999998}},{"type":"Feature","id":29,"geometry":{"type":"Point","coordinates":[58.169900000279704,22.837800000413143]},"properties":{"OBJECTID":29,"NAME":"Samad Ash Shan Hospital","WILLAYAT":"Samad Ash Shan ","GOV":"Ash Sharqiyah North Governorate","LATITUDE":22.837800000000001,"LONGITUDE":58.169899999999998}},{"type":"Feature","id":30,"geometry":{"type":"Point","coordinates":[58.028499999861353,22.498500000579632]},"properties":{"OBJECTID":30,"NAME":"Sinaw Hospital","WILLAYAT":"Sinaw ","GOV":"Ash Sharqiyah North Governorate","LATITUDE":22.4985,"LONGITUDE":58.028500000000001}},{"type":"Feature","id":31,"geometry":{"type":"Point","coordinates":[58.591199999581661,22.663100000442274]},"properties":{"OBJECTID":31,"NAME":"Ibra Hospital","WILLAYAT":"Ibra ","GOV":"Ash Sharqiyah North Governorate","LATITUDE":22.6631,"LONGITUDE":58.591200000000001}},{"type":"Feature","id":32,"geometry":{"type":"Point","coordinates":[58.802500000226679,22.4525000010673]},"properties":{"OBJECTID":32,"NAME":"Bidiyah Hospital","WILLAYAT":"Bidiyah","GOV":"Ash Sharqiyah North Governorate","LATITUDE":22.452500000000001,"LONGITUDE":58.802500000000002}},{"type":"Feature","id":33,"geometry":{"type":"Point","coordinates":[58.594400000455821,23.039600000161059]},"properties":{"OBJECTID":33,"NAME":"WaDI Dama Wa At Taiyin Hospital","WILLAYAT":"Dama Wa At Taiyyin","GOV":"Ash Sharqiyah North Governorate","LATITUDE":23.0396,"LONGITUDE":58.5944}},{"type":"Feature","id":34,"geometry":{"type":"Point","coordinates":[59.094500000354273,22.579600000902214]},"properties":{"OBJECTID":34,"NAME":" Wadi Bani Khalid Hospital","WILLAYAT":"Wadi Bani Khalid","GOV":"Ash Sharqiyah North Governorate","LATITUDE":22.579599999999999,"LONGITUDE":59.094499999999996}},{"type":"Feature","id":35,"geometry":{"type":"Point","coordinates":[53.424199999953714,16.748199999384916]},"properties":{"OBJECTID":35,"NAME":"Rakhyut Hospital","WILLAYAT":"Rakhyut","GOV":"Dhofar Governorate","LATITUDE":16.748200000000001,"LONGITUDE":53.424199999999999}},{"type":"Feature","id":36,"geometry":{"type":"Point","coordinates":[55.072100000136707,17.050899999076325]},"properties":{"OBJECTID":36,"NAME":"Sadah Hospital","WILLAYAT":"Sadah ","GOV":"Dhofar Governorate","LATITUDE":17.050899999999999,"LONGITUDE":55.072099999999999}},{"type":"Feature","id":37,"geometry":{"type":"Point","coordinates":[54.055099999596216,17.006700000411776]},"properties":{"OBJECTID":37,"NAME":"As Sultan Qaboos Hospital","WILLAYAT":"Salalah","GOV":"Dhofar Governorate","LATITUDE":17.006699999999999,"LONGITUDE":54.055100000000003}},{"type":"Feature","id":38,"geometry":{"type":"Point","coordinates":[54.400300000185545,17.041500000235022]},"properties":{"OBJECTID":38,"NAME":"Taqah Hospital","WILLAYAT":"Taqah ","GOV":"Dhofar Governorate","LATITUDE":17.041499999999999,"LONGITUDE":54.400300000000001}},{"type":"Feature","id":39,"geometry":{"type":"Point","coordinates":[54.389099999902839,17.167099999357866]},"properties":{"OBJECTID":39,"NAME":"Madinat Al Haq Hospital","WILLAYAT":"Taqah","GOV":"Dhofar Governorate","LATITUDE":17.167100000000001,"LONGITUDE":54.389099999999999}},{"type":"Feature","id":40,"geometry":{"type":"Point","coordinates":[54.551499999719375,17.109999998942516]},"properties":{"OBJECTID":40,"NAME":"Tawi  Aatayr Hospital","WILLAYAT":"Tawi Atair","GOV":"Dhofar Governorate","LATITUDE":17.109999999999999,"LONGITUDE":54.551499999999997}},{"type":"Feature","id":41,"geometry":{"type":"Point","coordinates":[54.701900000291069,16.99800000038752]},"properties":{"OBJECTID":41,"NAME":"Mirbat Hospital","WILLAYAT":"Mirbat ","GOV":"Dhofar Governorate","LATITUDE":16.998000000000001,"LONGITUDE":54.701900000000002}},{"type":"Feature","id":42,"geometry":{"type":"Point","coordinates":[58.50430000029727,23.488199999697827]},"properties":{"OBJECTID":42,"NAME":"Al Masarra Hospital","WILLAYAT":"Al Amerat","GOV":"Muscat Governorate","LATITUDE":23.488199999999999,"LONGITUDE":58.504300000000001}},{"type":"Feature","id":43,"geometry":{"type":"Point","coordinates":[58.387900000159874,23.575800000156214]},"properties":{"OBJECTID":43,"NAME":"Royal Hospital","WILLAYAT":"Muscat","GOV":"Muscat Governorate","LATITUDE":23.575800000000001,"LONGITUDE":58.387900000000002}},{"type":"Feature","id":44,"geometry":{"type":"Point","coordinates":[58.895700000414507,23.231000000750711]},"properties":{"OBJECTID":44,"NAME":"Qurayyat Hospital","WILLAYAT":"Qurayyat ","GOV":"Muscat Governorate","LATITUDE":23.231000000000002,"LONGITUDE":58.895699999999998}},{"type":"Feature","id":45,"geometry":{"type":"Point","coordinates":[58.56509999995076,23.581399999893915]},"properties":{"OBJECTID":45,"NAME":"Ar Rahmah Hospital","WILLAYAT":"Matrah","GOV":"Muscat Governorate","LATITUDE":23.581399999999999,"LONGITUDE":58.565100000000001}},{"type":"Feature","id":46,"geometry":{"type":"Point","coordinates":[58.532500000208245,23.588300001216542]},"properties":{"OBJECTID":46,"NAME":"An Nahdah Hospital","WILLAYAT":"Ruwi","GOV":"Muscat Governorate","LATITUDE":23.5883,"LONGITUDE":58.532499999999999}},{"type":"Feature","id":47,"geometry":{"type":"Point","coordinates":[58.517600000028459,23.612400001363174]},"properties":{"OBJECTID":47,"NAME":"Khawlah Hospital","WILLAYAT":"Mutrah","GOV":"Muscat Governorate","LATITUDE":23.612400000000001,"LONGITUDE":58.517600000000002}},{"type":"Feature","id":48,"geometry":{"type":"Point","coordinates":[56.25220000013384,26.182700001243528]},"properties":{"OBJECTID":48,"NAME":"Khasab Hospital","WILLAYAT":"Khasab","GOV":"Musandam Governorate","LATITUDE":26.182700000000001,"LONGITUDE":56.252200000000002}},{"type":"Feature","id":49,"geometry":{"type":"Point","coordinates":[56.249900000335721,25.643200001016691]},"properties":{"OBJECTID":49,"NAME":"Daba Hospital","WILLAYAT":"Daba ","GOV":"Musandam Governorate","LATITUDE":25.6432,"LONGITUDE":56.249899999999997}},{"type":"Feature","id":50,"geometry":{"type":"Point","coordinates":[58.483825637231391,23.602906690702316]},"properties":{"OBJECTID":50,"NAME":"Police Hospital ","WILLAYAT":"Bawshar","GOV":"Muscat Governorate","LATITUDE":23.602906690000001,"LONGITUDE":58.483825639999999}},{"type":"Feature","id":51,"geometry":{"type":"Point","coordinates":[58.29720920220042,23.551337108723562]},"properties":{"OBJECTID":51,"NAME":"Royal Oman Police Hospital","WILLAYAT":"As Seeb","GOV":"Muscat Governorate","LATITUDE":23.551337109999999,"LONGITUDE":58.297209199999998}},{"type":"Feature","id":52,"geometry":{"type":"Point","coordinates":[58.170571491877972,23.587610279150255]},"properties":{"OBJECTID":52,"NAME":"Sultan Qaboos University Hospital","WILLAYAT":"As Seeb","GOV":"Muscat Governorate","LATITUDE":23.58761028,"LONGITUDE":58.17057149}}]}